[
    {
        "address": "Praça República 30",
        "area": "centre",
        "food": "italian",
        "id": "19210",
        "introduction": "Pizza hut é uma grande cadeia com restaurantes em todo o país que oferece massas e saladas de pizzas de conveniência para comer ou levar",
        "location": [
            40.209227,
            -8.419224
        ],
        "name": "pizza hut",
        "phone": "222444222",
        "postcode": "3000-343",
        "pricerange": "cheap",
        "type": "restaurant",
        "idMultiWoz": "19210",
        "nameMultiWoz": "pizza hut city centre"
    },
    {
        "address": "R. Dom Manuel I 3A",
        "area": "east",
        "food": "international",
        "id": "30650",
        "introduction": "Restaurante 39",
        "location": [
            40.203226,
            -8.408694
        ],
        "name": "Restaurante 39",
        "phone": "239406675",
        "postcode": "3030-320",
        "pricerange": "cheap",
        "signature": "",
        "type": "restaurant",
        "idMultiWoz": "30650",
        "nameMultiWoz": "the missing sock"
    },
    {
        "address": "Avenida Emidio Navarro N037",
        "area": "centre",
        "food": "indian",
        "id": "19214",
        "introduction": "Comida indo-paquistanesa",
        "location": [
            40.206675,
            -8.428674
        ],
        "name": "Gul&Guls",
        "phone": "239094191",
        "postcode": "3000-150",
        "pricerange": "expensive",
        "type": "restaurant",
        "idMultiWoz": "19214",
        "nameMultiWoz": "curry garden"
    },
    {
        "address": "82 Cherry Hinton Road Cherry Hinton",
        "area": "south",
        "food": "chinese",
        "id": "19192",
        "location": [
            52.188528,
            0.140627
        ],
        "name": "the good luck chinese food takeaway",
        "phone": "01223244149",
        "postcode": "cb17ag",
        "pricerange": "expensive",
        "type": "restaurant"
    },
    {
        "address": "G4 Cambridge Leisure Park Clifton Way Cherry Hinton",
        "area": "south",
        "food": "italian",
        "id": "19196",
        "introduction": "pizza hut is a large chain with restaurants nationwide offering convenience pizzas pasta and salads to eat in or take away",
        "location": [
            52.190176,
            0.13699
        ],
        "name": "pizza hut cherry hinton",
        "phone": "01223323737",
        "postcode": "cb17dy",
        "pricerange": "moderate",
        "type": "restaurant"
    },
    {
        "address": "64 Cherry Hinton Road Cherry Hinton",
        "area": "south",
        "food": "indian",
        "id": "19191",
        "introduction": "taj tandoori serves a variety of indian dishes to eat in or take away catering for private parties of up to 50 guests is available upon request",
        "location": [
            52.188747,
            0.138941
        ],
        "name": "taj tandoori",
        "phone": "01223412299",
        "postcode": "cb17aa",
        "pricerange": "expensive",
        "type": "restaurant"
    },
    {
        "address": "152 - 154 Hills Road",
        "area": "south",
        "food": "modern european",
        "id": "14731",
        "introduction": "",
        "location": [
            52.18889,
            0.13589
        ],
        "name": "restaurant alimentum",
        "phone": "01223413000",
        "postcode": "cb28pb",
        "pricerange": "moderate",
        "signature": "slowroast sirloin of beef red onion celeriac and garlic",
        "type": "restaurant"
    },
    {
        "address": "Rua Luís A. Duarte Santos Junto Ao Leroy Merlin",
        "area": "east",
        "food": "chinese",
        "id": "19273",
        "introduction": "Restaurante buffet com vários tipos de comida - Chinesa, Bar, Churrasco, Sushi, Grill, Japonesa.",
        "location": [
            40.195007,
            -8.404545
        ],
        "name": "Wok Mondego",
        "phone": "239406286",
        "postcode": "3030-403",
        "pricerange": "moderate",
        "type": "restaurant",
        "idMultiWoz": "19273",
        "nameMultiWoz": "yu garden"
    },
    {
        "address": "Av. Dom Afonso Henriques 55",
        "area": "centre",
        "food": "italian",
        "id": "19240",
        "location": [
            0,
            0
        ],
        "name": "Fixepizza",
        "phone": "01223352607",
        "postcode": "cb23nj",
        "pricerange": "expensive",
        "type": "restaurant",
        "idMultiWoz": "19240",
        "nameMultiWoz": "stazione restaurant and coffee bar"
    },
    {
        "address": "Rua Carlos Seixas",
        "area": "east",
        "food": "indian",
        "id": "19270",
        "introduction": "--------",
        "location": [
            0,
            0
        ],
        "name": "Italian Indian Palace",
        "phone": "01223566388",
        "postcode": "cb58jj",
        "pricerange": "moderate",
        "type": "restaurant",
        "idMultiWoz": "19270",
        "nameMultiWoz": "curry prince"
    },
    {
        "address": "Av. Calouste Gulbenkian 81",
        "area": "centre",
        "food": "chinese",
        "id": "19212",
        "introduction": "?",
        "location": [
            40.214382,
            -8.415353
        ],
        "name": "Kang Le",
        "phone": "239484305",
        "postcode": "3000-090",
        "pricerange": "cheap",
        "type": "restaurant",
        "idMultiWoz": "19121",
        "nameMultiWoz": "charlie chan"
    },
    {
        "address": "Free School Lane City Centre",
        "area": "centre",
        "food": "european",
        "id": "19245",
        "introduction": "eraina serves a variety of drinks and european dishes with influences from france spain italy and greece catering for vegetarians is also provided",
        "location": [
            52.203708,
            0.119082
        ],
        "name": "eraina",
        "phone": "01223368786",
        "postcode": "cb23rh",
        "pricerange": "expensive",
        "type": "restaurant"
    },
    {
        "address": "Regent Street City Centre",
        "area": "centre",
        "food": "italian",
        "id": "19213",
        "introduction": "the simple menu and kitchen concept at pizza express has retained its freshly made ideal and you can still watch your pizza being prepared for you",
        "location": [
            52.201743,
            0.124843
        ],
        "name": "pizza express",
        "phone": "01223324033",
        "postcode": "cb21db",
        "pricerange": "moderate",
        "type": "restaurant"
    },
    {
        "address": "R. Padrão 240",
        "area": "north",
        "food": "portuguese",
        "id": "19211",
        "introduction": "Um espaço onde o petisco não é apenas um simples petisco, mas sim um momento de descontração.",
        "location": [
            40.222899,
            -8.439176
        ],
        "name": "O Choupal",
        "phone": "239823110",
        "postcode": "3020-199",
        "pricerange": "cheap",
        "type": "restaurant",
        "idMultiWoz": "19211",
        "nameMultiWoz": "restaurant one seven"
    },
    {
        "address": "12 Bridge Street City Centre",
        "area": "centre",
        "food": "italian",
        "id": "19229",
        "introduction": "ask is a leading name in the uk casual dining market with over 100 restaurants across the uk. ask is the perfect place to relax and enjoy mouthwatering risottos an extended range of hearty al forno dishes and all your favourite pastas pizzas and salads",
        "location": [
            52.209028,
            0.118296
        ],
        "name": "ask restaurant",
        "phone": "01223364917",
        "postcode": "cb21uf",
        "pricerange": "cheap",
        "type": "restaurant"
    },
    {
        "address": "11 Peas Hill City Centre",
        "area": "centre",
        "food": "chinese",
        "id": "19242",
        "introduction": "jinling noodle bar serves a wide range of chinese and shanghai dishes reflecting many different flavours and ingredients",
        "location": [
            52.204453,
            0.118693
        ],
        "name": "jinling noodle bar",
        "phone": "01223566188",
        "postcode": "cb23pp",
        "pricerange": "moderate",
        "type": "restaurant"
    },
    {
        "address": "Largo Quintal do Prior nº 2 a 4 Terreiro da Erva",
        "area": "centre",
        "food": "european",
        "id": "3697",
        "introduction": "Refeitro da Baixa",
        "location": [
            40.212565,
            -8.430605
        ],
        "name": "Refeitro da Baixa",
        "phone": "963704038",
        "postcode": "3000-339",
        "pricerange": "moderate",
        "type": "restaurant",
        "idMultiWoz": "3697",
        "nameMultiWoz": "luca cucina bar"
    },
    {
        "address": "2 Sturton Street City Centre",
        "area": "centre",
        "food": "gastropub",
        "id": "19188",
        "introduction": "the backstreet bistro is a gastropub with a separate bar area serving a couple of good real ales and a dining room serving modern european food. There is a decked area to sit out in during the summer months",
        "location": [
            52.202449,
            0.141062
        ],
        "name": "backstreet bistro",
        "phone": "01223306306",
        "postcode": "cb12qa",
        "pricerange": "expensive",
        "type": "restaurant"
    },
    {
        "address": "68 Histon Road Chesterton",
        "area": "west",
        "food": "indian",
        "id": "19266",
        "introduction": "tandoori palace serve a variety of indian and bangladeshi dishes and can cater for private parties of up to 110 guests upon request",
        "location": [
            52.215486,
            0.111167
        ],
        "name": "tandoori palace",
        "phone": "01223506055",
        "postcode": "cb43le",
        "pricerange": "expensive",
        "type": "restaurant"
    },
    {
        "address": "Rua Dr. Martins de Carvalho, nº 10",
        "area": "centre",
        "food": "european",
        "id": "10347",
        "introduction": "",
        "location": [
            52.20025,
            0.11659
        ],
        "name": "Sete Restaurante",
        "phone": "239060065",
        "postcode": "cb21rt",
        "pricerange": "moderate",
        "type": "restaurant",
        "idMultiWoz": "10347",
        "nameMultiWoz": "riverside brasserie"
    },
    {
        "address": "74 Mill Road City Centre",
        "area": "centre",
        "food": "indian",
        "id": "19180",
        "introduction": "kohinoor serves a variety of indian and vegetarian dishes at their restaurant a takeaway and delivery service is also available",
        "location": [
            52.200422,
            0.135784
        ],
        "name": "kohinoor",
        "phone": "01223323639",
        "postcode": "cb12as",
        "pricerange": "cheap",
        "type": "restaurant"
    },
    {
        "address": "R. Irmã Lúcia 20",
        "area": "south",
        "food": "mexican",
        "id": "19194",
        "introduction": "Tequila, Margaritas & cocktails",
        "location": [
            40.195857,
            -8.400597
        ],
        "name": "Tu Taqueria Wey",
        "phone": "?",
        "postcode": "3030-491",
        "pricerange": "moderate",
        "type": "restaurant",
        "idMultiWoz": "19194",
        "nameMultiWoz": "chiquitito restaurant bar"
    },
    {
        "address": "R. Dr. António J Almeida 277",
        "area": "east",
        "food": "italian",
        "id": "12700",
        "introduction": "",
        "location": [
            40.213184,
            -8.415737
        ],
        "name": "Pizzaria Eurotropico",
        "phone": "239484904",
        "postcode": "3000-045",
        "pricerange": "moderate",
        "type": "restaurant",
        "idMultiWoz": "12700",
        "nameMultiWoz": "prezzo"
    },
    {
        "address": "88 Mill Road City Centre",
        "area": "centre",
        "food": "chinese",
        "id": "19185",
        "introduction": "rice house serve a variety of popular chinese dishes at their restaurant",
        "location": [
            52.199332,
            0.138395
        ],
        "name": "rice house",
        "phone": "01223367755",
        "postcode": "cb12bd",
        "pricerange": "cheap",
        "type": "restaurant"
    },
    {
        "address": "59 Hills Road City Centre",
        "area": "centre",
        "food": "lebanese",
        "id": "19221",
        "location": [
            52.195416,
            0.13114
        ],
        "name": "ali baba",
        "phone": "01462432565",
        "postcode": "cb21nt",
        "pricerange": "moderate",
        "type": "restaurant"
    },
    {
        "address": "Rua de Quebra Costas 19",
        "area": "centre",
        "food": "international",
        "id": "19235",
        "introduction": "",
        "location": [
            40.209093,
            -8.428228
        ],
        "name": "Tapas nas Costas",
        "phone": "239157425",
        "postcode": "3000-340",
        "pricerange": "moderate",
        "type": "restaurant",
        "idMultiWoz": "19235",
        "nameMultiWoz": "the varsity restaurant"

    },
    {
        "address": "40270 King Street City Centre",
        "area": "centre",
        "food": "modern european",
        "id": "19177",
        "introduction": "darrys cookhouse and wine shop is an award winning drinking and dining restaurant and bar in the centre of cambridge",
        "location": [
            52.207312,
            0.124201
        ],
        "name": "darrys cookhouse and wine shop",
        "phone": "01223505015",
        "postcode": "cb11ln",
        "pricerange": "expensive",
        "type": "restaurant"
    },
    {
        "address": "Mill Road City Centre",
        "area": "centre",
        "food": "indian",
        "id": "19182",
        "introduction": "the golden curry serves a variety of authentic indian dishes at their fully licensed restaurant",
        "location": [
            52.199289,
            0.13974
        ],
        "name": "the golden curry",
        "phone": "01223329432",
        "postcode": "cb12az",
        "pricerange": "expensive",
        "type": "restaurant"
    },
    {
        "address": "71 Castle Street City Centre",
        "area": "west",
        "food": "indian",
        "id": "19249",
        "introduction": "cocum specialises in south indian cuisine using spices meat and vegetables from the kerala region there is also a take away option",
        "location": [
            52.212444,
            0.112823
        ],
        "name": "cocum",
        "phone": "01223366668",
        "postcode": "cb30ah",
        "pricerange": "expensive",
        "type": "restaurant"
    },
    {
        "address": "St. Michael's Church Trinity Street City Centre",
        "area": "centre",
        "food": "european",
        "id": "19227",
        "introduction": "digby trout is a chain of restaurants that are located in many of london's premier tourist attractions. they serve modern european cuisine and are open for lunch and dinner. situated in st michaels church, michaelhouse cafe serves coffee sandwiches and lunch from a regularly changing menu",
        "location": [
            52.20608,
            0.118215
        ],
        "name": "michaelhouse cafe",
        "phone": "01223309147",
        "postcode": "cb21su",
        "pricerange": "expensive",
        "type": "restaurant"
    },
    {
        "address": "37 Newnham Road Newnham",
        "area": "west",
        "food": "indian",
        "id": "19255",
        "introduction": "the rice boat serves an authentic kind of indian cuisine that originates from the villages of kerala where the spice trade originated",
        "location": [
            52.199012,
            0.113196
        ],
        "name": "rice boat",
        "phone": "01223302800",
        "postcode": "cb39ey",
        "pricerange": "expensive",
        "type": "restaurant"
    },
    {
        "address": "15 - 19 Trumpington Street",
        "area": "centre",
        "food": "european",
        "id": "4607",
        "introduction": "",
        "location": [
            52.19934,
            0.12146
        ],
        "name": "hotel du vin and bistro",
        "phone": "01223227330",
        "postcode": "cb21qa",
        "pricerange": "moderate",
        "signature": "",
        "type": "restaurant"
    },
    {
        "address": "41518 Castle Street City Centre",
        "area": "west",
        "food": "indian",
        "id": "19250",
        "introduction": "maharajah tandoori restaurant serve a variety of indian and tandoori dishes at their restaurant catering for private parties of up to 40 guests is available upon request",
        "location": [
            52.212444,
            0.112823
        ],
        "name": "maharajah tandoori restaurant",
        "phone": "01223358399",
        "postcode": "cb30ah",
        "pricerange": "expensive",
        "type": "restaurant"
    },
    {
        "address": "Av. da Guarda Inglesa 63",
        "area": "centre",
        "food": "international",
        "id": "14742",
        "introduction": "",
        "location": [
            40.207828,
            -8.438080
        ],
        "name": "O Açude",
        "phone": "239441638",
        "postcode": "3040-193",
        "pricerange": "moderate",
        "signature": "",
        "type": "restaurant",
        "idMultiWoz": "14742",
        "nameMultiWoz": "bloomsbury restaurant"
    },
    {
        "address": "17 Magdalene Street City Centre",
        "area": "west",
        "food": "vietnamese",
        "id": "19248",
        "introduction": "thanh binh serve a variety of vietnamese dishes as well as selling an assortment of tea and coffees",
        "location": [
            52.210226,
            0.115646
        ],
        "name": "thanh binh",
        "phone": "01223362456",
        "postcode": "cb30af",
        "pricerange": "cheap",
        "type": "restaurant"
    },
    {
        "address": "Beco do Fanado 9",
        "area": "centre",
        "food": "spanish",
        "id": "12566",
        "introduction": "  ",
        "location": [
            0,
            0
        ],
        "name": "Cova Funda Espanhol",
        "phone": "01223464630",
        "postcode": "cb21uf",
        "pricerange": "moderate",
        "type": "restaurant",
        "idMultiWoz": "restaurant",
        "nameMultiWoz": "la tasca"
    },
    {
        "address": "R. Amorim Girão 15 loja 6",
        "area": "north",
        "food": "italian",
        "id": "19259",
        "introduction": "",
        "location": [
            40.196166,
            -8.432251
        ],
        "name": "Da Vinci l'arte della pizza",
        "phone": "934202873",
        "postcode": "3040-092",
        "pricerange": "cheap",
        "type": "restaurant",
        "idMultiWoz": "19259",
        "nameMultiWoz": "da vinci pizzeria"
    },
    {
        "address": "Rua Bernardo de Albuquerque n° 15B",
        "area": "north",
        "food": "french",
        "id": "19264",
        "location": [
            40.214209,
            -8.412932
        ],
        "name": "BioEscolha",
        "phone": "910840484",
        "postcode": "3000-072",
        "pricerange": "cheap",
        "type": "restaurant",
        "idMultiWoz": "19264",
        "nameMultiWoz": "two two"
    },
    {
        "address": "12 St. Johns Street City Centre",
        "area": "centre",
        "food": "chinese",
        "id": "19228",
        "introduction": "ugly duckling serves a variety of chinese dishes to eat in or take away they also offer 10 percent discount on takeaway orders",
        "location": [
            52.208055,
            0.118397
        ],
        "name": "ugly duckling",
        "postcode": "cb21tw",
        "pricerange": "expensive",
        "type": "restaurant"
    },
    {
        "address": "Rua Irma Lucia Lote 6, Loja 8",
        "area": "centre",
        "food": "japanese",
        "id": "12638",
        "introduction": "",
        "location": [
            40.195673,
            -8.400876
        ],
        "name": "Peculiar Sushi or Steak",
        "phone": "912525551",
        "postcode": "3030-491",
        "pricerange": "expensive",
        "type": "restaurant",
        "idMultiWoz": "12638",
        "nameMultiWoz": "wagamama"
    },
    {
        "address": "12 Norfolk Street City Centre",
        "area": "centre",
        "food": "chinese",
        "id": "19186",
        "introduction": "lan hong house serves great value home cooked authentic chinese food with over two five dishes available from the buffet",
        "location": [
            52.204609,
            0.137976
        ],
        "name": "lan hong house",
        "phone": "01223350420",
        "postcode": "cb12lf",
        "pricerange": "moderate",
        "type": "restaurant"
    },
    {
        "address": "R Paul Harris Quinta da Portela",
        "area": "south",
        "food": "portuguese",
        "id": "12238",
        "introduction": "---",
        "location": [
            0,
            0
        ],
        "name": "Sol Do Mondego",
        "phone": "01223327908",
        "postcode": "cb17dy",
        "pricerange": "cheap",
        "type": "restaurant",
        "idMultiWoz": "12238",
        "nameMultiWoz": "nandos"
    },
    {
        "address": "6 Lensfield Road",
        "area": "centre",
        "food": "british",
        "id": "13071",
        "introduction": "",
        "location": [
            52.1987,
            0.12578
        ],
        "name": "the oak bistro",
        "phone": "01223323361",
        "postcode": "cb21eg",
        "pricerange": "moderate",
        "signature": "chargrilled rib eye steak with truffle butter mixed salad and fries",
        "type": "restaurant"
    },
    {
        "address": "4 Kings Parade City Centre",
        "area": "centre",
        "food": "british",
        "id": "19226",
        "introduction": "the copper kettle serve a variety of english dishes at their restaurant including full english breakfasts lunches, roast dinners and baked potatoes. a takeaway menu is also provided",
        "location": [
            52.204387,
            0.117841
        ],
        "name": "the copper kettle",
        "phone": "01223365068",
        "postcode": "cb21sj",
        "pricerange": "moderate",
        "type": "restaurant"
    },
    {
        "address": "Estrada de Eiras 360",
        "area": "north",
        "food": "chinese",
        "id": "19197",
        "location": [
            40.230945,
            -8.436285
        ],
        "name": "Panda",
        "phone": "963611854",
        "postcode": "3025-069",
        "pricerange": "cheap",
        "type": "restaurant",
        "idMultiWoz": "19197",
        "nameMultiWoz": "the lucky star"
    },
    {
        "address": "R. Dr. Manuel Rodrigues 17",
        "area": "centre",
        "food": "british",
        "id": "19224",
        "introduction": "",
        "location": [
            40.213851,
            -8.432273
        ],
        "name": "Notes Bar & Kitchen",
        "phone": "239151726",
        "postcode": "3000-258",
        "pricerange": "expensive",
        "type": "restaurant",
        "idMultiWoz": "19224",
        "nameMultiWoz": "Fitzbillies restaurant"
    },
    {
        "address": "108 Regent Street City Centre",
        "area": "centre",
        "food": "korean",
        "id": "19216",
        "introduction": "little seoul offer a variety of korean cuisine for lunch and dinner",
        "location": [
            52.200187,
            0.126407
        ],
        "name": "little seoul",
        "phone": "01223308681",
        "postcode": "cb21dp",
        "pricerange": "expensive",
        "type": "restaurant"
    },
    {
        "address": "R. Alexandre Herculano 16C",
        "area": "centre",
        "food": "turkish",
        "id": "19189",
        "introduction": "",
        "location": [
            0,
            0
        ],
        "name": "Efes Kebab",
        "postcode": "cb13nf",
        "pricerange": "expensive",
        "type": "restaurant",
        "idMultiWoz": "19189",
        "nameMultiWoz": "meze bar"
    },
    {
        "address": "Avenida Sá da Bandeira 50",
        "area": "centre",
        "food": "asian oriental",
        "id": "19225",
        "introduction": "Comida asiática e chinesa",
        "location": [
            40.211321,
            -8.423609
        ],
        "name": "Casa da Massa",
        "phone": "960125887",
        "postcode": "3000-350",
        "pricerange": "cheap",
        "type": "restaurant",
        "idMultiWoz": "19225",
        "nameMultiWoz": "dojo noodle bar"
    },
    {
        "address": "15 Magdalene Street City Centre",
        "area": "west",
        "food": "italian",
        "id": "19247",
        "introduction": "la margherita serve a variety of italian and vegetarian dishes at their restaurant",
        "location": [
            52.210226,
            0.115646
        ],
        "name": "la margherita",
        "phone": "01223315232",
        "postcode": "cb30af",
        "pricerange": "cheap",
        "type": "restaurant"
    },
    {
        "address": "40428 King Street City Centre",
        "area": "centre",
        "food": "asian oriental",
        "id": "19175",
        "introduction": "yippee noodle bar serves a variety of oriental and vegetarian dishes at their restaurant they also have a bar area and offer a take away service",
        "location": [
            52.207446,
            0.122788
        ],
        "name": "yippee noodle bar",
        "phone": "01223518111",
        "postcode": "cb11lh",
        "pricerange": "moderate",
        "type": "restaurant"
    },
    {
        "address": "7 Milton Road Chesterton",
        "area": "north",
        "food": "indian",
        "id": "19263",
        "location": [
            52.215157,
            0.125015
        ],
        "name": "the nirala",
        "phone": "01223360966",
        "postcode": "cb41uy",
        "pricerange": "moderate",
        "type": "restaurant"
    },
    {
        "address": "183 East Road City Centre",
        "area": "centre",
        "food": "british",
        "id": "19171",
        "introduction": "cotto is a restaurant cafe and bakery all rolled in to one. The restaurant upstairs is open for dinner from wednesday to saturday consisting of one menu of between three to five dishes tailored to the day the cafe and bakery offer cakes and other delicacies",
        "location": [
            52.204703,
            0.133238
        ],
        "name": "cotto",
        "phone": "01223302010",
        "postcode": "cb11bg",
        "pricerange": "moderate",
        "type": "restaurant"
    },
    {
        "address": "Rua Joao de Deus Ramos 145",
        "area": "east",
        "food": "british",
        "id": "14810",
        "introduction": "",
        "location": [
            40.203253,
            -8.404984
        ],
        "name": "Honorato",
        "phone": "910054671",
        "postcode": "3030-328",
        "pricerange": "moderate",
        "signature": "Hamburgers artesanais",
        "type": "restaurant",
        "idMultiWoz": "14810",
        "nameMultiWoz": "saint johns chop house"
    },
    {
        "address": "R. Gen. Humberto Delgado 207 303",
        "area": "east",
        "food": "italian",
        "id": "19275",
        "introduction": "A pizza hut é uma grande cadeia com restaurantes a nível nacional que oferece massas e saladas de pizzas para comer ou levar",
        "location": [
            40.203661,
            -8.407639
        ],
        "name": "Pizza Hut Alma Shopping",
        "phone": "222444222",
        "postcode": "3030-327",
        "pricerange": "moderate",
        "type": "restaurant",
        "idMultiWoz": "19275",
        "nameMultiWoz": "pizza hut fen ditton"
    },
    {
        "address": "Av. José Bonifácio de Andrada e Silva 1",
        "area": "centre",
        "food": "chinese",
        "id": "19219",
        "location": [
            40.210689,
            -8.444671
        ],
        "name": "Tun Fon",
        "phone": "239810784",
        "postcode": "3040-389",
        "pricerange": "cheap",
        "type": "restaurant",
        "idMultiWoz": "19129",
        "nameMultiWoz": "golden house"
    },
    {
        "address": "Largo do Romal 30",
        "area": "centre",
        "food": "asian oriental",
        "id": "19215",
        "introduction": "",
        "location": [
            40.208754,
            -8.430200
        ],
        "name": "Izakaya Oni",
        "phone": "912754762",
        "postcode": "3000-347",
        "pricerange": "cheap",
        "type": "restaurant",
        "idMultiWoz": "19215",
        "nameMultiWoz": "j restaurant"
    },
    {
        "address": "33 Bridge Street",
        "area": "centre",
        "food": "european",
        "id": "6780",
        "introduction": "",
        "location": [
            52.20951,
            0.11669
        ],
        "name": "galleria",
        "phone": "01223362054",
        "postcode": "cb21uw",
        "pricerange": "moderate",
        "signature": "poached fillets of monkfish in lemongrass with sweet red chilli cream sauce and tiger prawns with leeks and mushrooms served with rice",
        "type": "restaurant"
    },
    {
        "address": "Corn Exchange Street",
        "area": "centre",
        "food": "gastropub",
        "id": "31390",
        "introduction": "",
        "location": [
            52.204424,
            0.12046
        ],
        "name": "the cow pizza kitchen and bar",
        "phone": "01223308871",
        "postcode": "cb23qf",
        "pricerange": "moderate",
        "signature": "wasabi spiked hamburger",
        "type": "restaurant"
    },
    {
        "address": "Rua Adro de Baixo 5 a 7",
        "area": "centre",
        "food": "gastropub",
        "id": "19183",
        "introduction": "Um lugar que convida à descoberta e partilha dos melhores vinhos e produtos da nossa gastronomia.",
        "location": [
            40.208313,
            -8.429880
        ],
        "name": "Devaneio Gastropub",
        "phone": "239052754",
        "postcode": "3030-439",
        "pricerange": "expensive",
        "type": "restaurant",
        "idMultiWoz": "19183",
        "nameMultiWoz": "Bedouin"
    },
    {
        "address": "2 Rose Crescent City Centre",
        "area": "centre",
        "food": "mediterranean",
        "id": "19238",
        "introduction": "the gardenia serves a variety of authentic greek and mediterranean dishes at their restaurant catering for private parties of up to two five guests is available upon request",
        "location": [
            52.206098,
            0.118713
        ],
        "name": "the gardenia",
        "phone": "01223356354",
        "postcode": "cb23ll",
        "pricerange": "cheap",
        "type": "restaurant"
    },
    {
        "address": "Praça República 25C",
        "area": "centre",
        "food": "italian",
        "id": "29652",
        "introduction": "",
        "location": [
            40.210176,
            -8.419330
        ],
        "name": "Mr. Pizza",
        "phone": "239826666",
        "postcode": "3000-343",
        "pricerange": "cheap",
        "signature": "",
        "type": "restaurant",
        "idMultiWoz": "29652",
        "nameMultiWoz": "zizzi cambridge"
    },
    {
        "address": "Rua Damião de Góis",
        "area": "east",
        "food": "portuguese",
        "id": "19272",
        "introduction": "Um restaurante de ar boémio, com livros e quadros por todo o lado, para se sentir como em casa. Cozinha de toque tradicional, com boas entradas e buffet de sobremesas.",
        "location": [
            40.204848,
            -8.394871
        ],
        "name": "Casas do Bragal",
        "phone": "918103988",
        "postcode": "3030-388",
        "pricerange": "expensive",
        "type": "restaurant",
        "idMultiWoz": "19272",
        "nameMultiWoz": "pipasha restaurant"
    },
    {
        "address": "Rua da Saragoca",
        "area": "centre",
        "food": "portuguese",
        "id": "12237",
        "introduction": "Um restaurante cheio de tradições e com mais de três décadas de história!",
        "location": [
            40.212544,
            -8.425697
        ],
        "name": "O Mimo",
        "phone": "239823341",
        "postcode": "3000-380",
        "pricerange": "cheap",
        "type": "restaurant",
        "idMultiWoz": "12237",
        "nameMultiWoz": "nandos city centre"

    },
    {
        "address": "Praça do Comércio 80",
        "area": "north",
        "food": "indian",
        "id": "19257",
        "location": [
            40.209009,
            -8.429305
        ],
        "name": "Chai...",
        "phone": "920305099",
        "postcode": "3000-116",
        "pricerange": "cheap",
        "type": "restaurant",
        "idMultiWoz": "19257",
        "nameMultiWoz": "royal spice"
    },
    {
        "address": "R. Cidade de Poitiers ",
        "area": "north",
        "food": "chinese",
        "id": "19260",
        "introduction": "----",
        "location": [
            0,
            0
        ],
        "name": "Lung Wah",
        "phone": "----",
        "postcode": "----",
        "pricerange": "expensive",
        "type": "restaurant",
        "idMultiWoz":"19260",
        "nameMultiWoz":"hakka"
    },
    {
        "address": "Rua Nova 30",
        "area": "centre",
        "food": "portuguese",
        "id": "19237",
        "introduction": "",
        "location": [
            40.211583,
            -8.430033
        ],
        "name": "Bar Diligência",
        "phone": "911763722",
        "postcode": "3000-297",
        "pricerange": "cheap",
        "type": "restaurant",
        "idMultiWoz": "19237",
        "nameMultiWoz": "la raza"
    },
    {
        "address": "72 Regent Street City Centre",
        "area": "centre",
        "food": "indian",
        "id": "19218",
        "introduction": "the gandhi serves a variety of indian and bangladeshi dishes at their restaurant to eat in or take away. Catering for private parties of up to 140 guests is available upon request",
        "location": [
            52.200187,
            0.126407
        ],
        "name": "the gandhi",
        "phone": "01223353942",
        "postcode": "cb21dp",
        "pricerange": "cheap",
        "type": "restaurant"
    },
    {
        "address": "Câmara Pestana 8",
        "area": "east",
        "food": "chinese",
        "id": "19265",
        "introduction": "Cozinha Tradicional Chinesa em Coimbra.",
        "location": [
            40.193537,
            -8.406085
        ],
        "name": "Fu Hua",
        "phone": "239722076",
        "postcode": "3030-163",
        "pricerange": "moderate",
        "type": "restaurant",
        "idMultiWoz": "19265",
        "nameMultiWoz": "golden wok"
    },
    {
        "address": "R. Carlos Seixas 202",
        "area": "south",
        "food": "indian",
        "id": "19267",
        "location": [
            40.194832,
            -8.417658
        ],
        "name": "Italian Indian Palace",
        "phone": "239704011",
        "postcode": "3030-177",
        "pricerange": "moderate",
        "type": "restaurant",
        "idMultiWoz": "19267",
        "nameMultiWoz": "meghna"
    },
    {
        "address": "Hills Road City Centre",
        "area": "centre",
        "food": "indian",
        "id": "19220",
        "introduction": "the saffron brasserie serve a variety of dishes from their contemporary indian and bangladeshi menu. Catering for private parties of up to 100 guests is available upon request",
        "location": [
            52.196862,
            0.129248
        ],
        "name": "saffron brasserie",
        "phone": "01223354679",
        "postcode": "cb21la",
        "pricerange": "expensive",
        "type": "restaurant"
    },
    {
        "address": "Largo Quintal do Prior nº 2 a 4 Terreiro da Erva",
        "area": "centre",
        "food": "mediterranean",
        "id": "19268",
        "location": [
            0,
            0  
        ],
        "name": "Refeitro da Baixa",
        "phone": "01223362525",
        "postcode": "cb58aq",
        "pricerange": "expensive",
        "type": "restaurant",
        "idMultiWoz": "19268",
        "nameMultiWoz": "la mimosa"
    },
    {
        "address": "39 Burleigh Street City Centre",
        "area": "centre",
        "food": "chinese",
        "id": "19173",
        "introduction": "shanghai family restaurant comprises a french cafe on the lower level and a chinese restaurant upstairs",
        "location": [
            52.206111,
            0.132969
        ],
        "name": "shanghai family restaurant",
        "phone": "01223301761",
        "postcode": "cb11dg",
        "pricerange": "moderate",
        "type": "restaurant"
    },
    {
        "address": "The Little Rose 37 Trumpington Street",
        "area": "centre",
        "food": "seafood",
        "id": "19223",
        "introduction": "using the freshest seafood from the loch of the same name, loch fyne restaurants serve a variety of shellfish and smoked fish all of which are complimented by an extensive wine list. Non-seafood dishes are also available",
        "location": [
            52.200693,
            0.119744
        ],
        "name": "loch fyne",
        "phone": "01223362433",
        "postcode": "cb21qy",
        "pricerange": "expensive",
        "type": "restaurant"
    },
    {
        "address": "3 - 5 Millers Yard Mill Lane",
        "area": "centre",
        "food": "indian",
        "id": "15275",
        "introduction": "",
        "location": [
            52.20143,
            0.11664
        ],
        "name": "mahal of cambridge",
        "phone": "01223360409",
        "postcode": "cb21rq",
        "pricerange": "cheap",
        "signature": "chicken tikka masala",
        "type": "restaurant"
    },
    {
        "address": "Jesus Lane Fen Ditton",
        "area": "centre",
        "food": "italian",
        "id": "19269",
        "introduction": "the simple menu and kitchen concept at pizza express has retained its freshly made ideal, and you can still watch your pizza being prepared for you. This branch has live jazz music",
        "location": [
            52.208252,
            0.119957
        ],
        "name": "pizza express Fen Ditton",
        "phone": "01223324033",
        "postcode": "cb58ba",
        "pricerange": "moderate",
        "type": "restaurant"
    },
    {
        "address": "Rua Afonso Costa",
        "area": "west",
        "food": "thai",
        "id": "19256",
        "introduction": "--------",
        "location": [
            0,
            0
        ],
        "name": "Dee Thai Food",
        "phone": "01223323178",
        "postcode": "cb39ey",
        "pricerange": "expensive",
        "type": "restaurant",
        "idMultiWoz": "19256",
        "nameMultiWoz": "sala thong"
    },
    {
        "address": "R. Dr. Manuel Rodrigues 39",
        "area": "north",
        "id": "19262",
        "introduction": "Os restaurantes “Dux” são verdadeiras Tabernas Urbanas e ainda que tenham em comum a variedade de petiscos e vinhos, cada espaço tem uma identidade própria.",
        "location": [
            40.213565,
            -8.432809
        ],
        "name": "Dux Taberna Urbana",
        "phone": "239093723",
        "postcode": "3000-226",
        "pricerange": "expensive",
        "food": "european",
        "type": "restaurant",
        "idMultiWoz": "19262",
        "nameMultiWoz": "city stop restaurant"
    },
    {
        "address": "Avenida Mendes Silva",
        "area": "north",
        "food": "asian oriental",
        "id": "19261",
        "introduction": "--------",
        "location": [
            0,
            0
        ],
        "name": "Shari Sushi Bar",
        "phone": "01223356555",
        "postcode": "-----",
        "pricerange": "expensive",
        "type": "restaurant",
        "idMultiWoz": "19261",
        "nameMultiWoz": "saigon city"
    },
    {
        "address": "Rua do Brasil 185",
        "area": "south",
        "food": "japanese",
        "id": "19246",
        "introduction": "Japonesa, Sushi, Asiático",
        "location": [
            40.201978,
            -8.415544
        ],
        "name": "Sake",
        "phone": "239158209",
        "postcode": "3030-175",
        "pricerange": "moderate",
        "type": "restaurant",
        "idMultiWoz": "19246",
        "nameMultiWoz": "peking restaurant"
    },
    {
        "address": "Rua O Conimbricense",
        "area": "south",
        "food": "italian",
        "id": "19195",
        "introduction": "------",
        "location": [
            0,
            0
        ],
        "name": "Osteria 44",
        "phone": "910588187",
        "postcode": "3030-504",
        "pricerange": "expensive",
        "type": "restaurant",
        "idMultiWoz": "19195",
        "nameMultiWoz": "frankie and bennys"
    },
    {
        "address": "Hotel Felix Whitehouse Lane Huntingdon Road",
        "area": "west",
        "food": "british",
        "id": "7492",
        "introduction": "Critically acclaimed food in luxurious and stylish surroundings, overlooking the hotels lush gardens.",
        "location": [
            52.22414,
            0.09194
        ],
        "name": "graffiti",
        "phone": "01223277977",
        "postcode": "cb30lx",
        "pricerange": "expensive",
        "signature": "panfried fillet of brill tempura of langoustine crushed garden peas shellfish basil nage",
        "type": "restaurant"
    },
    {
        "address": "31 Newnham Road Newnham",
        "area": "west",
        "food": "indian",
        "id": "19254",
        "introduction": "indian house serve a variety of indian dishes to eat in or take away they also have a selection of english dishes on their menu",
        "location": [
            52.199012,
            0.113196
        ],
        "name": "india house",
        "phone": "01223461661",
        "postcode": "cb39ey",
        "pricerange": "expensive",
        "type": "restaurant"
    },
    {
        "address": "Rua Capitão Luís Gonzaga 27/29",
        "area": "west",
        "food": "european",
        "id": "19252",
        "introduction": "",
        "location": [
            40.217092,
            -8.406322
        ],
        "name": "Compostu tavern",
        "phone": "239703892",
        "postcode": "3000-095",
        "pricerange": "expensive",
        "type": "restaurant",
        "idMultiWoz": "19252",
        "nameMultiWoz": "cambridge lodge restaurant"
    },
    {
        "address": "Avenida Sá da Bandeira 91",
        "food": "british",
        "id": "19271",
        "introduction": "Serve fast-food",
        "location": [
            40.211004,
            -8.421740
        ],
        "name": "Brunn's Diner",
        "phone": "239065584",
        "postcode": "3000-351",
        "pricerange": "moderate",
        "type": "restaurant",
        "idMultiWoz": "19271",
        "nameMultiWoz": "grafton hotel restaurant"
    },
    {
        "address": "C. C. Forum Coimbra",
        "area": "north",
        "food": "chinese",
        "id": "19258",
        "introduction": "------------",
        "location": [
            0,
            0
        ],
        "name": "Monte Fuji",
        "phone": "-----",
        "postcode": "----",
        "pricerange": "expensive",
        "type": "restaurant",
        "idMultiWoz": "19258",
        "nameMultiWoz": "the hotpot"

    },
    {
        "address": "Quayside Off Bridge Street",
        "area": "centre",
        "food": "modern european",
        "id": "7236",
        "introduction": "",
        "location": [
            52.20984,
            0.11793
        ],
        "name": "the river bar steakhouse and grill",
        "phone": "01223307030",
        "postcode": "cb58aq",
        "pricerange": "cheap",
        "signature": "lobster mac and cheese",
        "type": "restaurant"
    },
    {
        "address": "Rua da Sota 34 e 38",
        "area": "centre",
        "food": "italian",
        "id": "19176",
        "introduction": "Sítio acolhedor e os pratos tão deliciosos que nos aproximam da maravilhosa Itália!",
        "location": [
            40.208073,
            -8.430344
        ],
        "name": "Il Tartufo",
        "phone": "239820546",
        "postcode": "3000-392",
        "pricerange": "expensive",
        "type": "restaurant",
        "idMultiWoz": "19176",
        "nameMultiWoz": "clowns cafe"
    },
    {
        "address": "R. Alexandre Herculano 16C",
        "area": "centre",
        "food": "turkish",
        "id": "19232",
        "introduction": " ",
        "location": [
            0,
            0
        ],
        "name": "Istanbul Kebab",
        "phone": "01223362372",
        "postcode": "cb21uj",
        "pricerange": "moderate",
        "type": "restaurant",
        "idMultiWoz": "19232",
        "nameMultiWoz": "anatolia"
    },
    {
        "address": "8 Norfolk Street City Centre",
        "area": "centre",
        "food": "indian",
        "id": "19187",
        "location": [
            52.204609,
            0.137976
        ],
        "name": "panahar",
        "phone": "01223355012",
        "postcode": "cb12lf",
        "pricerange": "expensive",
        "type": "restaurant"
    },
    {
        "address": "Rua Lourenço Almeida Azevedo",
        "area": "centre",
        "food": "chinese",
        "id": "19174",
        "introduction": "-------",
        "location": [
            0,
            0
        ],
        "name": "Kyoto House",
        "phone": "239054029",
        "postcode": "3000-250",
        "pricerange": "expensive",
        "type": "restaurant",
        "idMultiWoz": "19174",
        "nameMultiWoz": "tang chinese"
    },
    {
        "address": "34 - 35 Green Street",
        "area": "centre",
        "food": "gastropub",
        "id": "12482",
        "introduction": "slug lettuce is a premium high street bar that serves a wide range of restaurant quality food to suit all occasions and appetites.",
        "location": [
            52.20683,
            0.1192
        ],
        "name": "the slug and lettuce",
        "postcode": "cb23ju",
        "pricerange": "expensive",
        "type": "restaurant"
    },
    {
        "address": "5 Jordans Yard Bridge Street City Centre",
        "area": "centre",
        "food": "indian",
        "id": "19231",
        "introduction": "curry king serve a variety of indian dishes to eat in or take away catering for private parties of up to 40 guests is available upon request",
        "location": [
            52.209003,
            0.118661
        ],
        "name": "curry king",
        "phone": "01223324351",
        "postcode": "cb21ug",
        "pricerange": "expensive",
        "type": "restaurant"
    },
    {
        "address": "Huntingdon Road City Centre",
        "area": "west",
        "food": "british",
        "id": "19251",
        "introduction": "",
        "location": [
            52.214201,
            0.108588
        ],
        "name": "travellers rest",
        "phone": "01223276182",
        "postcode": "cb30df",
        "pricerange": "expensive",
        "type": "restaurant"
    },
    {
        "address": "106 Mill Road City Centre",
        "area": "centre",
        "food": "indian",
        "id": "19184",
        "introduction": "curry queen is the most popular indian restaurant in cambridge serving good indian cuisine including all the usual dishes",
        "location": [
            52.199332,
            0.138395
        ],
        "name": "curry queen",
        "phone": "01223351027",
        "postcode": "cb12bd",
        "pricerange": "expensive",
        "type": "restaurant"
    },
    {
        "address": "290 Mill Road City Centre",
        "area": "east",
        "food": "gastropub",
        "id": "19190",
        "location": [
            52.196967,
            0.149286
        ],
        "name": "royal standard",
        "phone": "01223247877",
        "postcode": "cb13nl",
        "pricerange": "expensive",
        "type": "restaurant"
    },
    {
        "address": "Rua dos Oleiros 16",
        "area": "east",
        "food": "indian",
        "id": "19274",
        "introduction": "-----",
        "location": [
            0,
            0
        ],
        "name": "Taj Indian",
        "phone": "239 052 713",
        "postcode": "3000-302",
        "pricerange": "moderate",
        "type": "restaurant",
        "idMultiWoz": "19274",
        "nameMultiWoz": "rajmahal"
    },
    {
        "address": "21 Burleigh Street City Centre",
        "area": "centre",
        "food": "chinese",
        "id": "19172",
        "location": [
            52.206111,
            0.132969
        ],
        "name": "hk fusion",
        "phone": "01223355909",
        "postcode": "cb11dg",
        "pricerange": "expensive",
        "type": "restaurant"
    },
    {
        "address": "King Street City Centre",
        "area": "centre",
        "food": "turkish",
        "id": "19178",
        "introduction": "efes restaurant serve a variety of turkish dishes including kebabs in truly authentic surroundings.",
        "location": [
            52.207312,
            0.124201
        ],
        "name": "efes restaurant",
        "phone": "01223500005",
        "postcode": "cb11ln",
        "pricerange": "moderate",
        "type": "restaurant"
    },
    {
        "address": "Regent Street City Centre",
        "area": "centre",
        "food": "north american",
        "id": "19209",
        "introduction": "gourmet burger kitchen has a trendy interior and, although a bit more expensive than the average high street burger joint, the delicious burgers and other dishes are huge and freshly prepared with large side orders to match. Catering for vegetarians is provided",
        "location": [
            52.20103,
            0.126023
        ],
        "name": "gourmet burger kitchen",
        "phone": "01223312598",
        "postcode": "cb21ab",
        "pricerange": "expensive",
        "type": "restaurant"
    },
    {
        "address": "Rua Borges Carneiro No 2 e 4",
        "area": "centre",
        "food": "italian",
        "id": "19239",
        "introduction": "Este restaurante, inaugurado no dia 22 de Janeiro de 2020, no coração de Coimbra, te propõe embarcar numa viagem pela verdadeira cozinha italiana, afinal a Itália é só sinônimo de pizzas.",
        "location": [
            40.208959,
            -8.426419
        ],
        "name": "Italianino",
        "phone": "939651086",
        "postcode": "3000-079",
        "pricerange": "expensive",
        "type": "restaurant",
        "idMultiWoz": "19239",
        "nameMultiWoz": "don pasquale pizzeria"
    },
    {
        "address": "1 Kings Parade",
        "area": "centre",
        "food": "british",
        "id": "6941",
        "introduction": "",
        "location": [
            52.20439,
            0.11784
        ],
        "name": "the cambridge chop house",
        "phone": "01223359506",
        "postcode": "cb21sj",
        "pricerange": "expensive",
        "signature": "lamb barnsley chop potato and garlic bake greens and gravy",
        "type": "restaurant"
    },
    {
        "address": "52 Mill Road City Centre",
        "area": "centre",
        "food": "asian oriental",
        "id": "19181",
        "introduction": "kymmoy is a noodle bar serving a wide variety of chinese thai cuisine for lunch and dinner",
        "location": [
            52.200422,
            0.135784
        ],
        "name": "kymmoy",
        "phone": "01223311911",
        "postcode": "cb12as",
        "pricerange": "expensive",
        "type": "restaurant"
    },
    {
        "address": "43 High Street Cherry Hinton Cherry Hinton",
        "area": "east",
        "food": "indian",
        "id": "19198",
        "location": [
            52.186739,
            0.173048
        ],
        "name": "sitar tandoori",
        "phone": "01223249955",
        "postcode": "cb19hx",
        "pricerange": "expensive",
        "type": "restaurant"
    },
    {
        "address": "84 Regent Street City Centre",
        "area": "centre",
        "food": "mediterranean",
        "id": "19217",
        "introduction": "Elevadíssima seleção de peixes frescos da nossa costa, as mais tenras carnes de origem certificada e os paladares frescos e suculentos das frutas e legumes da estação.",
        "location": [
            40.211151,
            -8.429737
        ],
        "name": "No tacho",
        "phone": "911925961",
        "postcode": "3000-282",
        "pricerange": "expensive",
        "type": "restaurant",
        "idMultiWoz": "19217",
        "nameMultiWoz": "shiraz restaurant"
    },
    {
        "address": "Midsummer Common",
        "area": "centre",
        "food": "british",
        "id": "508",
        "introduction": "",
        "location": [
            52.21251,
            0.12774
        ],
        "name": "midsummer house restaurant",
        "phone": "01223369299",
        "postcode": "cb41ha",
        "pricerange": "expensive",
        "signature": "seared scallops with truffle apple and celeriac",
        "type": "restaurant"
    },
    {
        "address": "Rua do Brasil N° 371",
        "area": "centre",
        "food": "french",
        "id": "19230",
        "introduction": "-----",
        "location": [
            0,
            0
        ],
        "name": "Restaurante O Pipo",
        "phone": "01223311053",
        "postcode": "cb21uf",
        "pricerange": "expensive",
        "type": "restaurant",
        "idMultiWoz": "19230",
        "nameMultiWoz": "cote"
    },
    {
        "address": "32 Bridge Street City Centre",
        "area": "centre",
        "food": "italian",
        "id": "19234",
        "introduction": "caffe uno is a chain of cafe style restaurants that offer a wide selection of meals and snacks to suit any time of the day including an extensive breakfast menu and choice of hot or cold drinks",
        "location": [
            52.209632,
            0.117213
        ],
        "name": "caffe uno",
        "phone": "01223448620",
        "postcode": "cb21uj",
        "pricerange": "expensive",
        "type": "restaurant"
    },
    {
        "address": "17 Hills Road City Centre",
        "area": "centre",
        "food": "chinese",
        "id": "19222",
        "introduction": "sesame restaurant and bar offers a wide variety of traditional chinese cuisine for lunch or dinner with wifi access and a television screen in the basement",
        "location": [
            52.197154,
            0.129511
        ],
        "name": "sesame restaurant and bar",
        "phone": "01223358899",
        "postcode": "cb21nw",
        "pricerange": "expensive",
        "type": "restaurant"
    },
    {
        "address": "24 Green Street City Centre",
        "area": "centre",
        "food": "thai",
        "id": "19236",
        "introduction": "bangkok city serve a variety of authentic dishes to eat in or take away",
        "location": [
            52.206504,
            0.119157
        ],
        "name": "bangkok city",
        "phone": "01223354382",
        "postcode": "cb23jx",
        "pricerange": "expensive",
        "type": "restaurant"
    }
]
